{
  "type": "FeatureCollection",
  "features": [
    {
      "type": "Feature",
      "geometry": {
        "type": "Point",
        "coordinates": [-73.9723, 40.7854]
      },
      "properties": {
        "name": "96th St Subway Station"
      }
    },
    {
      "type": "Feature",
      "geometry": {
        "type": "Point",
        "coordinates": [-73.8303, 40.7590]
      },
      "properties": {
        "name": "Flushing Main St Subway Station"
      }
    },
    {
      "type": "Feature",
      "geometry": {
        "type": "Point",
        "coordinates": [-73.8291, 40.7601]
      },
      "properties": {
        "name": "Joe's Restaurant"
      }
    },
    {
      "type": "Feature",
      "geometry": {
        "type": "Point",
        "coordinates": [-73.8292, 40.7598]
      },
      "properties": {
        "name": "Supermarket"
      }
    },
    {
      "type": "Feature",
      "geometry": {
        "type": "Point",
        "coordinates": [-73.9875, 40.7580]
      },
      "properties": {
        "name": "Times Square Subway Station"
      }
    },
    {
      "type": "Feature",
      "geometry": {
        "type": "Point",
        "coordinates": [-73.9875, 40.7580]
      },
      "properties": {
        "name": "AMC Times Square"
      }
    },
    {
      "type": "Feature",
      "geometry": {
        "type": "Point",
        "coordinates": [-73.9850, 40.7479]
      },
      "properties": {
        "name": "K-Town Restaurant"
      }
    },
    {
      "type": "Feature",
      "geometry": {
        "type": "Point",
        "coordinates": [-73.9723, 40.7854]
      },
      "properties": {
        "name": "Home (96th St Subway Station)"
      }
    }
  ]
}
